Symbol,Name,Sector,Industry,Headquarters_Location,lat,lng
MMM,3M Company,Industrials,Industrial Conglomerates,"St. Paul, Minnesota",44.9537029,-93.0899578
ABT,Abbott Laboratories,Health Care,Health Care Equipment,"North Chicago, Illinois",42.325578,-87.8411818
ABBV,AbbVie Inc.,Health Care,Pharmaceuticals,"North Chicago, Illinois",42.325578,-87.8411818
ABMD,Abiomed,Health Care,Health Care Equipment,"Danvers, Massachusetts",42.5750009,-70.932122
ACN,Accenture,Information Technology,IT Consulting & Other Services,"Dublin, Ireland",53.3498053,-6.2603097
ATVI,Activision Blizzard,Communication Services,Interactive Home Entertainment,"Santa Monica, California",34.0194543,-118.4911912
ADBE,Adobe Inc.,Information Technology,Application Software,"San Jose, California",37.3382082,-121.8863286
AMD,Advanced Micro Devices,Information Technology,Semiconductors,"Santa Clara, California",37.3541079,-121.9552356
AAP,Advance Auto Parts,Consumer Discretionary,Automotive Retail,"Raleigh, North Carolina",35.7795897,-78.6381787
AES,AES Corp,Utilities,Independent Power Producers & Energy Traders,"Arlington, Virginia",38.8799697,-77.1067698
AFL,Aflac,Financials,Life & Health Insurance,"Columbus, Georgia",32.4609764,-84.9877094
A,Agilent Technologies,Health Care,Health Care Equipment,"Santa Clara, California",37.3541079,-121.9552356
APD,Air Products & Chemicals,Materials,Industrial Gases,"Allentown, Pennsylvania",40.6022939,-75.4714098
AKAM,Akamai Technologies,Information Technology,Internet Services & Infrastructure,"Cambridge, Massachusetts",42.3736158,-71.1097335
ALK,Alaska Air Group,Industrials,Airlines,"Seattle, Washington",47.6062095,-122.3320708
ALB,Albemarle Corporation,Materials,Specialty Chemicals,"Charlotte, North Carolina",35.2270869,-80.8431267
ARE,Alexandria Real Estate Equities,Real Estate,Office REITs,"Pasadena, California",34.1477849,-118.1445155
ALXN,Alexion Pharmaceuticals,Health Care,Pharmaceuticals,"Boston, Massachusetts",42.3600825,-71.0588801
ALGN,Align Technology,Health Care,Health Care Supplies,"San Jose, California",37.3382082,-121.8863286
ALLE,Allegion,Industrials,Building Products,"Dublin, Ireland",53.3498053,-6.2603097
LNT,Alliant Energy,Utilities,Electric Utilities,"Madison, Wisconsin",43.0730517,-89.4012302
ALL,Allstate Corp,Financials,Property & Casualty Insurance,"Northfield Township, Illinois",42.1164563,-87.8293718
GOOGL,Alphabet Inc. (Class A),Communication Services,Interactive Media & Services,"Mountain View, California",37.3860517,-122.0838511
GOOG,Alphabet Inc. (Class C),Communication Services,Interactive Media & Services,"Mountain View, California",37.3860517,-122.0838511
MO,Altria Group Inc,Consumer Staples,Tobacco,"Richmond, Virginia",37.5407246,-77.4360481
AMZN,Amazon.com Inc.,Consumer Discretionary,Internet & Direct Marketing Retail,"Seattle, Washington",47.6062095,-122.3320708
AMCR,Amcor plc,Materials,Paper Packaging,"Warmley,혻Bristol, United Kingdom",51.459527,-2.474226
AEE,Ameren Corp,Utilities,Multi-Utilities,"St. Louis, Missouri",38.6270025,-90.1994042
AAL,American Airlines Group,Industrials,Airlines,"Fort Worth, Texas",32.7554883,-97.3307658
AEP,American Electric Power,Utilities,Electric Utilities,"Columbus, Ohio",39.9611755,-82.9987942
AXP,American Express,Financials,Consumer Finance,"New York, New York",40.7127753,-74.0059728
AIG,American International Group,Financials,Property & Casualty Insurance,"New York, New York",40.7127753,-74.0059728
AMT,American Tower Corp.,Real Estate,Specialized REITs,"Boston, Massachusetts",42.3600825,-71.0588801
AWK,American Water Works,Utilities,Water Utilities,"Camden, New Jersey",39.9259463,-75.1196199
AMP,Ameriprise Financial,Financials,Asset Management & Custody Banks,"Minneapolis, Minnesota",44.977753,-93.2650108
ABC,AmerisourceBergen,Health Care,Health Care Distributors,"Chesterbrook, Pennsylvania",40.0756627,-75.4590816
AME,Ametek,Industrials,Electrical Components & Equipment,"Berwyn, Pennsylvania",40.045824,-75.4395931
AMGN,Amgen Inc.,Health Care,Biotechnology,"Thousand Oaks, California",34.1705609,-118.8375937
APH,Amphenol Corp,Information Technology,Electronic Components,"Wallingford, Connecticut",41.4570108,-72.8230736
ADI,"Analog Devices, Inc.",Information Technology,Semiconductors,"Norwood, Massachusetts",42.1943909,-71.1989695
ANSS,"ANSYS, Inc.",Information Technology,Application Software,"Canonsburg, Pennsylvania",40.2625702,-80.1872797
ANTM,Anthem,Health Care,Managed Health Care,"Indianapolis, Indiana",39.768403,-86.158068
AON,Aon plc,Financials,Insurance Brokers,"London,혻United Kingdom",51.5073509,-0.1277583
AOS,A.O. Smith Corp,Industrials,Building Products,"Milwaukee, Wisconsin",43.0389025,-87.9064736
APA,APA Corporation,Energy,Oil & Gas Exploration & Production,"Houston, Texas",29.7604267,-95.3698028
AAPL,Apple Inc.,Information Technology,"Technology Hardware, Storage & Peripherals","Cupertino, California",37.3229978,-122.0321823
AMAT,Applied Materials Inc.,Information Technology,Semiconductor Equipment,"Santa Clara, California",37.3541079,-121.9552356
APTV,Aptiv PLC,Consumer Discretionary,Auto Parts & Equipment,"Dublin, Ireland",53.3498053,-6.2603097
ADM,Archer-Daniels-Midland Co,Consumer Staples,Agricultural Products,"Chicago, Illinois",41.8781136,-87.6297982
ANET,Arista Networks,Information Technology,Communications Equipment,"Santa Clara, California",37.3541079,-121.9552356
AJG,Arthur J. Gallagher & Co.,Financials,Insurance Brokers,"Rolling Meadows, Illinois",42.0841936,-88.0131275
AIZ,Assurant,Financials,Multi-line Insurance,"New York, New York",40.7127753,-74.0059728
T,AT&T Inc.,Communication Services,Integrated Telecommunication Services,"Dallas, Texas",32.7766642,-96.7969879
ATO,Atmos Energy,Utilities,Gas Utilities,"Dallas, Texas",32.7766642,-96.7969879
ADSK,Autodesk Inc.,Information Technology,Application Software,"San Rafael, California",37.9735346,-122.5310874
ADP,Automatic Data Processing,Information Technology,Data Processing & Outsourced Services,"Roseland, New Jersey",40.8206555,-74.2937594
AZO,AutoZone Inc,Consumer Discretionary,Specialty Stores,"Memphis, Tennessee",35.1495343,-90.0489801
AVB,AvalonBay Communities,Real Estate,Residential REITs,"Arlington, Virginia[3]",38.8837425,-77.1030042
AVY,Avery Dennison Corp,Materials,Paper Packaging,"Glendale, California",34.1425078,-118.255075
BKR,Baker Hughes Co,Energy,Oil & Gas Equipment & Services,"Houston, Texas",29.7604267,-95.3698028
BLL,Ball Corp,Materials,Metal & Glass Containers,"Broomfield, Colorado",39.9205411,-105.0866504
BAC,Bank of America Corp,Financials,Diversified Banks,"Charlotte, North Carolina",35.2270869,-80.8431267
BK,The Bank of New York Mellon,Financials,Asset Management & Custody Banks,"New York, New York",40.7127753,-74.0059728
BAX,Baxter International Inc.,Health Care,Health Care Equipment,"Deerfield, Illinois",42.1711365,-87.8445119
BDX,Becton Dickinson,Health Care,Health Care Equipment,"Franklin Lakes, New Jersey",41.0167639,-74.2057011
BRKB,Berkshire Hathaway,Financials,Multi-Sector Holdings,"Kiewit Plaza, Omaha, Nebraska, U.S.",41.2664604,-95.935927
BBY,Best Buy Co. Inc.,Consumer Discretionary,Computer & Electronics Retail,"Richfield, Minnesota",44.8832982,-93.2830021
BIO,Bio-Rad Laboratories,Health Care,Life Sciences Tools & Services,"Hercules, California",38.0171441,-122.2885808
BIIB,Biogen Inc.,Health Care,Biotechnology,"Cambridge, Massachusetts",42.3736158,-71.1097335
BLK,BlackRock,Financials,Asset Management & Custody Banks,"New York, New York",40.7127753,-74.0059728
BA,Boeing Company,Industrials,Aerospace & Defense,"Chicago, Illinois",41.8781136,-87.6297982
BKNG,Booking Holdings Inc,Consumer Discretionary,Internet & Direct Marketing Retail,"Norwalk, Connecticut",41.117744,-73.4081575
BWA,BorgWarner,Consumer Discretionary,Auto Parts & Equipment,"Auburn Hills, Michigan",42.6875323,-83.2341028
BXP,Boston Properties,Real Estate,Office REITs,"Boston, Massachusetts",42.3600825,-71.0588801
BSX,Boston Scientific,Health Care,Health Care Equipment,"Marlborough, Massachusetts[4]",42.3466552,-71.547722
BMY,Bristol-Myers Squibb,Health Care,Health Care Distributors,"New York, New York",40.7127753,-74.0059728
AVGO,Broadcom Inc.,Information Technology,Semiconductors,"San Jose, California",37.3382082,-121.8863286
BR,Broadridge Financial Solutions,Information Technology,Data Processing & Outsourced Services,"Lake Success, New York",40.7698453,-73.7090428
BFB,Brown-Forman Corp.,Consumer Staples,Distillers & Vintners,"Louisville, Kentucky",38.2526647,-85.7584557
CHRW,C. H. Robinson Worldwide,Industrials,Air Freight & Logistics,"Eden Prairie, Minnesota",44.8546856,-93.470786
COG,Cabot Oil & Gas,Energy,Oil & Gas Exploration & Production,"Houston, Texas",29.7604267,-95.3698028
CDNS,Cadence Design Systems,Information Technology,Application Software,"San Jose, California",37.3382082,-121.8863286
CZR,Caesars Entertainment,Consumer Discretionary,Casinos & Gaming,"Reno, Nevada",39.5296329,-119.8138027
CPB,Campbell Soup,Consumer Staples,Packaged Foods & Meats,"Camden, New Jersey",39.9259463,-75.1196199
COF,Capital One Financial,Financials,Consumer Finance,"Tysons Corner, Virginia",38.9187222,-77.2310925
CAH,Cardinal Health Inc.,Health Care,Health Care Distributors,"Dublin, Ohio",40.0992294,-83.1140771
KMX,Carmax Inc,Consumer Discretionary,Specialty Stores,"Richmond, Virginia",37.5407246,-77.4360481
CCL,Carnival Corp.,Consumer Discretionary,"Hotels, Resorts & Cruise Lines","Miami, Florida",25.7616798,-80.1917902
CARR,Carrier Global,Industrials,Building Products,"Palm Beach Gardens, Florida",26.8396096,-80.1019144
CTLT,Catalent,Health Care,Pharmaceuticals,"Somerset, New Jersey",40.497604,-74.4884868
CAT,Caterpillar Inc.,Industrials,Construction Machinery & Heavy Trucks,"Deerfield, Illinois",42.1711365,-87.8445119
CBOE,Cboe Global Markets,Financials,Financial Exchanges & Data,"Chicago, Illinois",41.8781136,-87.6297982
CBRE,CBRE Group,Real Estate,Real Estate Services,"Dallas, Texas",32.7766642,-96.7969879
CDW,CDW,Information Technology,Technology Distributors,"Lincolnshire, Illinois",42.1900249,-87.9084039
CE,Celanese,Materials,Specialty Chemicals,"Irving, Texas",32.8140177,-96.9488945
CNC,Centene Corporation,Health Care,Managed Health Care,"St. Louis, Missouri",38.6270025,-90.1994042
CNP,CenterPoint Energy,Utilities,Multi-Utilities,"Houston, Texas",29.7604267,-95.3698028
CERN,Cerner,Health Care,Health Care Technology,"North Kansas City, Missouri",39.1429081,-94.5729781
CF,CF Industries Holdings Inc,Materials,Fertilizers & Agricultural Chemicals,"Deerfield, Illinois",42.1711365,-87.8445119
CRL,Charles River Laboratories,Health Care,Life Sciences Tools & Services,"Wilmington, Massachusetts",42.5481714,-71.1724467
SCHW,Charles Schwab Corporation,Financials,Investment Banking & Brokerage,"Westlake, Texas",32.991235,-97.1950138
CHTR,Charter Communications,Communication Services,Cable & Satellite,"Stamford, Connecticut",41.0534302,-73.5387341
CVX,Chevron Corp.,Energy,Integrated Oil & Gas,"San Ramon, California",37.7643595,-121.9539616
CMG,Chipotle Mexican Grill,Consumer Discretionary,Restaurants,"Newport Beach, California",33.6188829,-117.9298493
CB,Chubb Limited,Financials,Property & Casualty Insurance,"Zurich, Switzerland",47.3768866,8.541694
CHD,Church & Dwight,Consumer Staples,Household Products,"Ewing, New Jersey",40.2599864,-74.7909125
CI,Cigna,Health Care,Managed Health Care,"Bloomfield, Connecticut",41.826488,-72.7300945
CINF,Cincinnati Financial,Financials,Property & Casualty Insurance,"Fairfield, Ohio",39.3454673,-84.5603187
CTAS,Cintas Corporation,Industrials,Diversified Support Services,"Mason, Ohio",39.3600586,-84.309939
CSCO,Cisco Systems,Information Technology,Communications Equipment,"San Jose, California",37.3382082,-121.8863286
C,Citigroup Inc.,Financials,Diversified Banks,"New York, New York",40.7127753,-74.0059728
CFG,Citizens Financial Group,Financials,Regional Banks,"Providence, Rhode Island",41.8239891,-71.4128343
CTXS,Citrix Systems,Information Technology,Application Software,"Fort Lauderdale, Florida",26.1224386,-80.1373174
CLX,The Clorox Company,Consumer Staples,Household Products,"Oakland, California",37.8043514,-122.2711639
CME,CME Group Inc.,Financials,Financial Exchanges & Data,"Chicago, Illinois",41.8781136,-87.6297982
CMS,CMS Energy,Utilities,Multi-Utilities,"Jackson, Michigan",42.245869,-84.4013462
KO,Coca-Cola Company,Consumer Staples,Soft Drinks,"Atlanta, Georgia",33.7489954,-84.3879824
CTSH,Cognizant Technology Solutions,Information Technology,IT Consulting & Other Services,"Teaneck, New Jersey",40.8932469,-74.0116536
CL,Colgate-Palmolive,Consumer Staples,Household Products,"New York, New York",40.7127753,-74.0059728
CMCSA,Comcast Corp.,Communication Services,Cable & Satellite,"Philadelphia, Pennsylvania",39.9525839,-75.1652215
CMA,Comerica Inc.,Financials,Diversified Banks,"Dallas, Texas",32.7766642,-96.7969879
CAG,Conagra Brands,Consumer Staples,Packaged Foods & Meats,"Chicago, Illinois",41.8781136,-87.6297982
COP,ConocoPhillips,Energy,Oil & Gas Exploration & Production,"Houston, Texas",29.7604267,-95.3698028
ED,Consolidated Edison,Utilities,Electric Utilities,"New York, New York",40.7127753,-74.0059728
STZ,Constellation Brands,Consumer Staples,Distillers & Vintners,"Victor, New York",42.9825633,-77.4088794
COO,The Cooper Companies,Health Care,Health Care Supplies,"San Ramon, California",37.7643595,-121.9539616
CPRT,Copart Inc,Industrials,Diversified Support Services,"Dallas, Texas",32.7766642,-96.7969879
GLW,Corning Inc.,Information Technology,Electronic Components,"Corning, New York",42.1428521,-77.0546903
CTVA,Corteva,Materials,Fertilizers & Agricultural Chemicals,"Wilmington, Delaware",39.744655,-75.5483909
COST,Costco Wholesale Corp.,Consumer Staples,Hypermarkets & Super Centers,"Issaquah, Washington",47.5301011,-122.0326191
CCI,Crown Castle,Real Estate,Specialized REITs,"Houston, Texas",29.7604267,-95.3698028
CSX,CSX Corp.,Industrials,Railroads,"Jacksonville, Florida",30.3321838,-81.655651
CMI,Cummins Inc.,Industrials,Industrial Machinery,"Columbus, Indiana",39.2014404,-85.9213796
CVS,CVS Health,Health Care,Health Care Services,"Woonsocket, Rhode Island",42.0028761,-71.5147839
DHI,D. R. Horton,Consumer Discretionary,Homebuilding,"Arlington, Texas",32.735687,-97.1080656
DHR,Danaher Corp.,Health Care,Health Care Equipment,"Washington, D.C.",38.9071923,-77.0368707
DRI,Darden Restaurants,Consumer Discretionary,Restaurants,"Orlando, Florida",28.5383355,-81.3792365
DVA,DaVita Inc.,Health Care,Health Care Facilities,"Denver, Colorado",39.7392358,-104.990251
DE,Deere & Co.,Industrials,Agricultural & Farm Machinery,"Moline, Illinois",41.5067003,-90.5151342
DAL,Delta Air Lines Inc.,Industrials,Airlines,"Atlanta, Georgia",33.7489954,-84.3879824
XRAY,Dentsply Sirona,Health Care,Health Care Supplies,"Charlotte, North Carolina",35.2270869,-80.8431267
DVN,Devon Energy,Energy,Oil & Gas Exploration & Production,"Oklahoma City, Oklahoma",35.4675602,-97.5164276
DXCM,DexCom,Health Care,Health Care Equipment,"San Diego, California",32.715738,-117.1610838
FANG,Diamondback Energy,Energy,Oil & Gas Exploration & Production,"Midland, Texas",31.9973456,-102.0779146
DLR,Digital Realty Trust Inc,Real Estate,Specialized REITs,"Austin, Texas",30.267153,-97.7430608
DFS,Discover Financial Services,Financials,Consumer Finance,"Riverwoods, Illinois",42.1675254,-87.897014
DISCA,"Discovery, Inc. (Series A)",Communication Services,Broadcasting,"New York, New York",40.7127753,-74.0059728
DISCK,"Discovery, Inc. (Series C)",Communication Services,Broadcasting,"New York, New York",40.7127753,-74.0059728
DISH,Dish Network,Communication Services,Cable & Satellite,"Meridian, Colorado",39.5468937,-104.8395768
DG,Dollar General,Consumer Discretionary,General Merchandise Stores,"Goodlettsville, Tennessee",36.3231066,-86.7133302
DLTR,Dollar Tree,Consumer Discretionary,General Merchandise Stores,"Chesapeake, Virginia",36.7682088,-76.2874927
D,Dominion Energy,Utilities,Electric Utilities,"Richmond, Virginia",37.5407246,-77.4360481
DPZ,Domino's Pizza,Consumer Discretionary,Restaurants,"Ann Arbor, Michigan",42.2808256,-83.7430378
DOV,Dover Corporation,Industrials,Industrial Machinery,"Downers Grove, Illinois",41.8089191,-88.0111746
DOW,Dow Inc.,Materials,Commodity Chemicals,"Midland, Michigan",43.6155825,-84.2472116
DTE,DTE Energy Co.,Utilities,Multi-Utilities,"Detroit, Michigan",42.331427,-83.0457538
DUK,Duke Energy,Utilities,Electric Utilities,"Charlotte, North Carolina",35.2270869,-80.8431267
DRE,Duke Realty Corp,Real Estate,Industrial REITs,"Indianapolis, Indiana",39.768403,-86.158068
DD,DuPont de Nemours Inc,Materials,Specialty Chemicals,"Wilmington, Delaware",39.744655,-75.5483909
DXC,DXC Technology,Information Technology,IT Consulting & Other Services,"Tysons Corner, Virginia",38.9187222,-77.2310925
EMN,Eastman Chemical,Materials,Diversified Chemicals,"Kingsport, Tennessee",36.548434,-82.5618186
ETN,Eaton Corporation,Industrials,Electrical Components & Equipment,"Dublin, Ireland",53.3498053,-6.2603097
EBAY,eBay Inc.,Consumer Discretionary,Internet & Direct Marketing Retail,"San Jose, California",37.3382082,-121.8863286
ECL,Ecolab Inc.,Materials,Specialty Chemicals,"St. Paul, Minnesota",44.9537029,-93.0899578
EIX,Edison Int'l,Utilities,Electric Utilities,"Rosemead, California",34.0805651,-118.072846
EW,Edwards Lifesciences,Health Care,Health Care Equipment,"Irvine, California",33.6845673,-117.8265049
EA,Electronic Arts,Communication Services,Interactive Home Entertainment,"Redwood City, California",37.4847955,-122.228141
EMR,Emerson Electric Company,Industrials,Electrical Components & Equipment,"Ferguson, Missouri",38.7442175,-90.3053915
ENPH,Enphase Energy,Information Technology,Electronic Components,"Fremont, California",37.5485396,-121.988583
ETR,Entergy Corp.,Utilities,Electric Utilities,"New Orleans, Louisiana",29.9510658,-90.0715323
EOG,EOG Resources,Energy,Oil & Gas Exploration & Production,"Houston, Texas",29.7604267,-95.3698028
EFX,Equifax Inc.,Industrials,Research & Consulting Services,"Atlanta, Georgia",33.7489954,-84.3879824
EQIX,Equinix,Real Estate,Specialized REITs,"Redwood City, California",37.4847955,-122.228141
EQR,Equity Residential,Real Estate,Residential REITs,"Chicago, Illinois",41.8781136,-87.6297982
ESS,"Essex Property Trust, Inc.",Real Estate,Residential REITs,"San Mateo, California",37.5629917,-122.3255254
EL,Estée Lauder Companies,Consumer Staples,Personal Products,"New York, New York",40.7127753,-74.0059728
ETSY,Etsy,Consumer Discretionary,Internet & Direct Marketing Retail,"Brooklyn, New York",40.6781784,-73.9441579
EVRG,Evergy,Utilities,Electric Utilities,"Kansas City, Missouri",39.0997265,-94.5785667
ES,Eversource Energy,Utilities,Multi-Utilities,"Hartford, Connecticut",41.7658043,-72.6733723
RE,Everest Re Group Ltd.,Financials,Reinsurance,"Hamilton, Bermuda",32.2945837,-64.7858887
EXC,Exelon Corp.,Utilities,Multi-Utilities,"Chicago, Illinois",41.8781136,-87.6297982
EXPE,Expedia Group,Consumer Discretionary,Internet & Direct Marketing Retail,"Seattle, Washington",47.6062095,-122.3320708
EXPD,Expeditors,Industrials,Air Freight & Logistics,"Seattle, Washington",47.6062095,-122.3320708
EXR,Extra Space Storage,Real Estate,Specialized REITs,"Salt Lake City, Utah",40.7607793,-111.8910474
XOM,Exxon Mobil Corp.,Energy,Integrated Oil & Gas,"Irving, Texas",32.8140177,-96.9488945
FFIV,F5 Networks,Information Technology,Communications Equipment,"Seattle, Washington",47.6062095,-122.3320708
FB,"Facebook, Inc.",Communication Services,Interactive Media & Services,"Menlo Park, California",37.4529598,-122.1817252
FAST,Fastenal Co,Industrials,Building Products,"Winona, Minnesota",44.0553908,-91.6663523
FRT,Federal Realty Investment Trust,Real Estate,Retail REITs,"Rockville, Maryland",39.0839973,-77.1527578
FDX,FedEx Corporation,Industrials,Air Freight & Logistics,"Memphis, Tennessee",35.1495343,-90.0489801
FIS,Fidelity National Information Services,Information Technology,Data Processing & Outsourced Services,"Jacksonville, Florida",30.3321838,-81.655651
FITB,Fifth Third Bancorp,Financials,Regional Banks,"Cincinnati, Ohio",39.1031182,-84.5120196
FE,FirstEnergy Corp,Utilities,Electric Utilities,"Akron, Ohio",41.0814447,-81.5190053
FRC,First Republic Bank,Financials,Regional Banks,"San Francisco, California",37.7749295,-122.4194155
FISV,Fiserv Inc,Information Technology,Data Processing & Outsourced Services,"Brookfield, Wisconsin",43.0605671,-88.1064787
FLT,FleetCor Technologies Inc,Information Technology,Data Processing & Outsourced Services,"Norcross, Georgia",33.9411081,-84.2137443
FMC,FMC Corporation,Materials,Fertilizers & Agricultural Chemicals,"Philadelphia, Pennsylvania",39.9525839,-75.1652215
F,Ford Motor Company,Consumer Discretionary,Automobile Manufacturers,"Dearborn, Michigan",42.3222599,-83.1763145
FTNT,Fortinet,Information Technology,Systems Software,"Sunnyvale, California",37.36883,-122.0363496
FTV,Fortive Corp,Industrials,Industrial Machinery,"Everett, Washington",47.9789848,-122.2020795
FBHS,Fortune Brands Home & Security,Industrials,Building Products,"Deerfield, Illinois",42.1711365,-87.8445119
FOXA,Fox Corporation (Class A),Communication Services,Movies & Entertainment,"New York, New York",40.7127753,-74.0059728
FOX,Fox Corporation (Class B),Communication Services,Movies & Entertainment,"New York, New York",40.7127753,-74.0059728
BEN,Franklin Resources,Financials,Asset Management & Custody Banks,"San Mateo, California",37.5629917,-122.3255254
FCX,Freeport-McMoRan Inc.,Materials,Copper,"Phoenix, Arizona",33.4483771,-112.0740373
GPS,Gap Inc.,Consumer Discretionary,Apparel Retail,"San Francisco, California",37.7749295,-122.4194155
GRMN,Garmin Ltd.,Consumer Discretionary,Consumer Electronics,"Schaffhausen, Switzerland",47.6958897,8.6380489
IT,Gartner Inc,Information Technology,IT Consulting & Other Services,"Stamford, Connecticut",41.0534302,-73.5387341
GNRC,Generac Holdings,Industrials,Electrical Components & Equipment,"Waukesha, Wisconsin",43.0116784,-88.2314813
GD,General Dynamics,Industrials,Aerospace & Defense,"Falls Church, Virginia",38.882334,-77.1710914
GE,General Electric,Industrials,Industrial Conglomerates,"Boston, Massachusetts",42.3600825,-71.0588801
GIS,General Mills,Consumer Staples,Packaged Foods & Meats,"Golden Valley, Minnesota",44.9917149,-93.3600034
GM,General Motors,Consumer Discretionary,Automobile Manufacturers,"Detroit, Michigan",42.331427,-83.0457538
GPC,Genuine Parts,Consumer Discretionary,Specialty Stores,"Atlanta, Georgia",33.7489954,-84.3879824
GILD,Gilead Sciences,Health Care,Biotechnology,"Foster City, California",37.5585465,-122.2710788
GL,Globe Life Inc.,Financials,Life & Health Insurance,"McKinney, Texas",33.1983388,-96.6389342
GPN,Global Payments Inc.,Information Technology,Data Processing & Outsourced Services,"Atlanta, Georgia",33.7489954,-84.3879824
GS,Goldman Sachs Group,Financials,Investment Banking & Brokerage,"New York, New York",40.7127753,-74.0059728
GWW,Grainger (W.W.) Inc.,Industrials,Industrial Machinery,"Lake Forest, Illinois",42.2586342,-87.840625
HAL,Halliburton Co.,Energy,Oil & Gas Equipment & Services,"Houston, Texas",29.7604267,-95.3698028
HBI,Hanesbrands Inc,Consumer Discretionary,"Apparel, Accessories & Luxury Goods","Winston-Salem, North Carolina",36.0998596,-80.244216
HIG,Hartford Financial Svc.Gp.,Financials,Property & Casualty Insurance,"Hartford, Connecticut",41.7658043,-72.6733723
HAS,Hasbro Inc.,Consumer Discretionary,Leisure Products,"Pawtucket, Rhode Island",41.878711,-71.3825558
HCA,HCA Healthcare,Health Care,Health Care Facilities,"Nashville, Tennessee",36.1626638,-86.7816016
PEAK,Healthpeak Properties,Real Estate,Health Care REITs,"Long Beach, California",33.7700504,-118.1937395
HSIC,Henry Schein,Health Care,Health Care Distributors,"Melville, New York",40.7934322,-73.4151214
HSY,The Hershey Company,Consumer Staples,Packaged Foods & Meats,"Hershey, Pennsylvania",40.2859239,-76.6502468
HES,Hess Corporation,Energy,Integrated Oil & Gas,"New York, New York",40.7127753,-74.0059728
HPE,Hewlett Packard Enterprise,Information Technology,"Technology Hardware, Storage & Peripherals","Houston, Texas",29.7604267,-95.3698028
HLT,Hilton Worldwide Holdings Inc,Consumer Discretionary,"Hotels, Resorts & Cruise Lines","Tysons Corner, Virginia",38.9187222,-77.2310925
OGN,Organon Co,Health Care,Pharmaceuticals,#N/A,#N/A,#N/A
HOLX,Hologic,Health Care,Health Care Equipment,"Marlborough, Massachusetts",42.3459271,-71.5522874
HD,Home Depot,Consumer Discretionary,Home Improvement Retail,"Atlanta, Georgia",33.7489954,-84.3879824
HON,Honeywell Int'l Inc.,Industrials,Industrial Conglomerates,"Charlotte, North Carolina",35.2270869,-80.8431267
HRL,Hormel Foods Corp.,Consumer Staples,Packaged Foods & Meats,"Austin, Minnesota",43.6666296,-92.9746367
HST,Host Hotels & Resorts,Real Estate,Hotel & Resort REITs,"Bethesda, Maryland",38.984652,-77.0947092
HWM,Howmet Aerospace,Industrials,Aerospace & Defense,"Pittsburgh, Pennsylvania",40.4406248,-79.9958864
HPQ,HP Inc.,Information Technology,"Technology Hardware, Storage & Peripherals","Palo Alto, California",37.4418834,-122.1430195
HUM,Humana Inc.,Health Care,Managed Health Care,"Louisville, Kentucky",38.2526647,-85.7584557
HBAN,Huntington Bancshares,Financials,Regional Banks,"Columbus, Ohio",39.9611755,-82.9987942
HII,Huntington Ingalls Industries,Industrials,Aerospace & Defense,"Newport News, Virginia",37.0870821,-76.4730122
IEX,IDEX Corporation,Industrials,Industrial Machinery,"Lake Forest, Illinois",42.2586342,-87.840625
IDXX,Idexx Laboratories,Health Care,Health Care Equipment,"Westbrook, Maine",43.6770252,-70.3711617
INFO,IHS Markit,Industrials,Research & Consulting Services,"London, United Kingdom",51.5073509,-0.1277583
ITW,Illinois Tool Works,Industrials,Industrial Machinery,"Glenview, Illinois",42.0778065,-87.8223368
ILMN,Illumina Inc,Health Care,Life Sciences Tools & Services,"San Diego, California",32.715738,-117.1610838
INCY,Incyte,Health Care,Biotechnology,"Wilmington, Delaware",39.744655,-75.5483909
IR,Ingersoll Rand,Industrials,Industrial Machinery,"Milwaukee, Wisconsin",43.0389025,-87.9064736
INTC,Intel Corp.,Information Technology,Semiconductors,"Santa Clara, California",37.3541079,-121.9552356
ICE,Intercontinental Exchange,Financials,Financial Exchanges & Data,"Atlanta, Georgia",33.7489954,-84.3879824
IBM,International Business Machines,Information Technology,IT Consulting & Other Services,"Armonk, New York",41.1264849,-73.7140195
IP,International Paper,Materials,Paper Packaging,"Memphis, Tennessee",35.1495343,-90.0489801
IPG,Interpublic Group,Communication Services,Advertising,"New York, New York",40.7127753,-74.0059728
IFF,International Flavors & Fragrances,Materials,Specialty Chemicals,"New York, New York",40.7127753,-74.0059728
INTU,Intuit Inc.,Information Technology,Application Software,"Mountain View, California",37.3860517,-122.0838511
ISRG,Intuitive Surgical Inc.,Health Care,Health Care Equipment,"Sunnyvale, California",37.36883,-122.0363496
IVZ,Invesco Ltd.,Financials,Asset Management & Custody Banks,"Atlanta, Georgia",33.7489954,-84.3879824
IPGP,IPG Photonics Corp.,Information Technology,Electronic Manufacturing Services,"Oxford, Massachusetts",42.1167606,-71.8647577
IQV,IQVIA Holdings Inc.,Health Care,Life Sciences Tools & Services,"Durham, North Carolina",35.9940329,-78.898619
IRM,Iron Mountain Incorporated,Real Estate,Specialized REITs,"Boston, Massachusetts",42.3600825,-71.0588801
JKHY,Jack Henry & Associates,Information Technology,Data Processing & Outsourced Services,"Monett, Missouri",36.9289502,-93.9277071
J,Jacobs Engineering Group,Industrials,Construction & Engineering,"Dallas, Texas",32.7766642,-96.7969879
JBHT,J. B. Hunt Transport Services,Industrials,Trucking,"Lowell, Arkansas",36.2553543,-94.1307587
SJM,JM Smucker,Consumer Staples,Packaged Foods & Meats,"Orrville, Ohio",40.8436663,-81.7640212
JNJ,Johnson & Johnson,Health Care,Pharmaceuticals,"New Brunswick, New Jersey",40.4862157,-74.4518188
JCI,Johnson Controls International,Industrials,Building Products,"Cork, Ireland",51.8985143,-8.4756035
JPM,JPMorgan Chase & Co.,Financials,Diversified Banks,"New York, New York",40.7127753,-74.0059728
JNPR,Juniper Networks,Information Technology,Communications Equipment,"Sunnyvale, California",37.36883,-122.0363496
KSU,Kansas City Southern,Industrials,Railroads,"Kansas City, Missouri",39.0997265,-94.5785667
K,Kellogg Co.,Consumer Staples,Packaged Foods & Meats,"Battle Creek, Michigan",42.3211522,-85.1797142
KEY,KeyCorp,Financials,Regional Banks,"Cleveland, Ohio",41.49932,-81.6943605
KEYS,Keysight Technologies,Information Technology,Electronic Equipment & Instruments,"Santa Rosa, California",38.440429,-122.7140548
KMB,Kimberly-Clark,Consumer Staples,Household Products,"Irving, Texas",32.8140177,-96.9488945
KIM,Kimco Realty,Real Estate,Retail REITs,"New Hyde Park, New York",40.7351018,-73.6879082
KMI,Kinder Morgan,Energy,Oil & Gas Storage & Transportation,"Houston, Texas",29.7604267,-95.3698028
KLAC,KLA Corporation,Information Technology,Semiconductor Equipment,"Milpitas, California",37.4323341,-121.8995741
KHC,Kraft Heinz Co,Consumer Staples,Packaged Foods & Meats,"Chicago, Illinois;혻Pittsburgh, Pennsylvania",0,0
KR,Kroger Co.,Consumer Staples,Food Retail,"Cincinnati, Ohio",39.1031182,-84.5120196
LB,L Brands Inc.,Consumer Discretionary,Apparel Retail,"Columbus, Ohio",39.9611755,-82.9987942
LHX,L3Harris Technologies,Industrials,Aerospace & Defense,"Melbourne, Florida",28.0836269,-80.6081089
LH,Laboratory Corp. of America Holding,Health Care,Health Care Services,"Burlington, North Carolina",36.0953841,-79.4381515
LRCX,Lam Research,Information Technology,Semiconductor Equipment,"Fremont, California",37.5485396,-121.988583
LW,Lamb Weston Holdings Inc,Consumer Staples,Packaged Foods & Meats,"Eagle, Idaho",43.6954424,-116.3540138
LVS,Las Vegas Sands,Consumer Discretionary,Casinos & Gaming,"Las Vegas, Nevada",36.1699412,-115.1398296
LEG,Leggett & Platt,Consumer Discretionary,Home Furnishings,"Carthage, Missouri",37.176447,-94.3102228
LDOS,Leidos Holdings,Industrials,Diversified Support Services,"Reston, Virginia",38.9586307,-77.3570028
LEN,Lennar Corp.,Consumer Discretionary,Homebuilding,"Miami, Florida",25.7616798,-80.1917902
LLY,Lilly (Eli) & Co.,Health Care,Pharmaceuticals,"Indianapolis, Indiana",39.768403,-86.158068
LNC,Lincoln National,Financials,Multi-line Insurance,"Radnor, Pennsylvania",40.043912,-75.3754599
LIN,Linde plc,Materials,Industrial Gases,"Guildford, Surrey, United Kingdom",51.23622,-0.570409
LYV,Live Nation Entertainment,Communication Services,Movies & Entertainment,"Beverly Hills, California",34.0736204,-118.4003563
LKQ,LKQ Corporation,Consumer Discretionary,Distributors,"Chicago, Illinois",41.8781136,-87.6297982
LMT,Lockheed Martin Corp.,Industrials,Aerospace & Defense,"Bethesda, Maryland",38.984652,-77.0947092
L,Loews Corp.,Financials,Multi-line Insurance,"New York, New York",40.7127753,-74.0059728
LOW,Lowe's Cos.,Consumer Discretionary,Home Improvement Retail,"Mooresville, North Carolina",35.5859146,-80.8081413
LUMN,Lumen Technologies,Communication Services,Alternative Carriers,"Monroe, Louisiana",32.5093109,-92.1193012
LYB,LyondellBasell,Materials,Specialty Chemicals,"Rotterdam, Netherlands",51.9244201,4.4777326
MTB,M&T Bank,Financials,Regional Banks,"Buffalo, New York",42.8864468,-78.8783689
MRO,Marathon Oil Corp.,Energy,Oil & Gas Exploration & Production,"Houston, Texas",29.7604267,-95.3698028
MPC,Marathon Petroleum,Energy,Oil & Gas Refining & Marketing,"Findlay, Ohio",41.04422,-83.6499321
MKTX,MarketAxess,Financials,Financial Exchanges & Data,"New York, New York",40.7127753,-74.0059728
MAR,Marriott International,Consumer Discretionary,"Hotels, Resorts & Cruise Lines","Bethesda, Maryland",38.984652,-77.0947092
MMC,Marsh & McLennan,Financials,Insurance Brokers,"New York, New York",40.7127753,-74.0059728
MLM,Martin Marietta Materials,Materials,Construction Materials,"Raleigh, North Carolina",35.7795897,-78.6381787
MAS,Masco Corp.,Industrials,Building Products,"Livonia, Michigan",42.36837,-83.3527097
MA,Mastercard Inc.,Information Technology,Data Processing & Outsourced Services,"Harrison, New York",40.9700171,-73.7176337
MKC,McCormick & Co.,Consumer Staples,Packaged Foods & Meats,"Hunt Valley, Maryland",39.4900013,-76.6585074
MXIM,Maxim Integrated Products,Information Technology,Semiconductors,"San Jose, California",37.3382082,-121.8863286
MCD,McDonald's Corp.,Consumer Discretionary,Restaurants,"Chicago, Illinois",41.8781136,-87.6297982
MCK,McKesson Corp.,Health Care,Health Care Distributors,"Irving, Texas",32.8140177,-96.9488945
MDT,Medtronic plc,Health Care,Health Care Equipment,"Dublin,혻Ireland",53.3498053,-6.2603097
MRK,Merck & Co.,Health Care,Pharmaceuticals,"Kenilworth, New Jersey",40.6764911,-74.2907032
MET,MetLife Inc.,Financials,Life & Health Insurance,"New York, New York",40.7127753,-74.0059728
MTD,Mettler Toledo,Health Care,Life Sciences Tools & Services,"Columbus, Ohio",39.9611755,-82.9987942
MGM,MGM Resorts International,Consumer Discretionary,Casinos & Gaming,"Paradise, Nevada",36.0971945,-115.1466648
MCHP,Microchip Technology,Information Technology,Semiconductors,"Chandler, Arizona",33.3061605,-111.8412502
MU,Micron Technology,Information Technology,Semiconductors,"Boise, Idaho",43.6150186,-116.2023137
MSFT,Microsoft Corp.,Information Technology,Systems Software,"Redmond, Washington",47.6739881,-122.121512
MAA,Mid-America Apartments,Real Estate,Residential REITs,"Memphis, Tennessee",35.1495343,-90.0489801
MHK,Mohawk Industries,Consumer Discretionary,Home Furnishings,"Calhoun, Georgia",34.502587,-84.9510542
TAP,Molson Coors Beverage Company,Consumer Staples,Brewers,"Denver, Colorado",39.7392358,-104.990251
MDLZ,Mondelez International,Consumer Staples,Packaged Foods & Meats,"Chicago, Illinois",41.8781136,-87.6297982
MPWR,Monolithic Power Systems,Information Technology,Semiconductors,"Kirkland, Washington",47.6768927,-122.2059833
MNST,Monster Beverage,Consumer Staples,Soft Drinks,"Corona, California",33.8752935,-117.5664384
MCO,Moody's Corp,Financials,Financial Exchanges & Data,"New York, New York",40.7127753,-74.0059728
MS,Morgan Stanley,Financials,Investment Banking & Brokerage,"New York, New York",40.7127753,-74.0059728
MOS,The Mosaic Company,Materials,Fertilizers & Agricultural Chemicals,"Tampa, Florida",27.950575,-82.4571776
MSI,Motorola Solutions Inc.,Information Technology,Communications Equipment,"Chicago, Illinois",41.8781136,-87.6297982
MSCI,MSCI Inc,Financials,Financial Exchanges & Data,"New York, New York",40.7127753,-74.0059728
NDAQ,"Nasdaq, Inc.",Financials,Financial Exchanges & Data,"New York, New York",40.7127753,-74.0059728
NTAP,NetApp,Information Technology,"Technology Hardware, Storage & Peripherals","Sunnyvale, California",37.36883,-122.0363496
NFLX,Netflix Inc.,Communication Services,Movies & Entertainment,"Los Gatos, California",37.2358078,-121.9623751
NWL,Newell Brands,Consumer Discretionary,Housewares & Specialties,"Atlanta, Georgia",33.7489954,-84.3879824
NEM,Newmont Corporation,Materials,Gold,"Denver, Colorado",39.7392358,-104.990251
NWSA,News Corp (Class A),Communication Services,Publishing,"New York, New York",40.7127753,-74.0059728
NWS,News Corp (Class B),Communication Services,Publishing,"New York, New York",40.7127753,-74.0059728
NEE,NextEra Energy,Utilities,Multi-Utilities,"Juno Beach, Florida",26.8797819,-80.0533743
NLSN,Nielsen Holdings,Industrials,Research & Consulting Services,"New York, New York",40.7127753,-74.0059728
NKE,"Nike, Inc.",Consumer Discretionary,"Apparel, Accessories & Luxury Goods","Washington County, Oregon",45.5469616,-123.1386021
NI,NiSource Inc.,Utilities,Multi-Utilities,"Merrillville, Indiana",41.4828144,-87.3328139
NSC,Norfolk Southern Corp.,Industrials,Railroads,"Norfolk, Virginia",36.8507689,-76.2858726
NTRS,Northern Trust Corp.,Financials,Asset Management & Custody Banks,"Chicago, Illinois",41.8781136,-87.6297982
NOC,Northrop Grumman,Industrials,Aerospace & Defense,"West Falls Church, Virginia",38.8645565,-77.1877587
NLOK,NortonLifeLock,Information Technology,Application Software,"Tempe, Arizona",33.4255104,-111.9400054
NCLH,Norwegian Cruise Line Holdings,Consumer Discretionary,"Hotels, Resorts & Cruise Lines","Miami, Florida",25.7616798,-80.1917902
NOV,NOV Inc.,Energy,Oil & Gas Equipment & Services,"Houston, Texas",29.7604267,-95.3698028
NRG,NRG Energy,Utilities,Independent Power Producers & Energy Traders,"Houston, Texas",29.7604267,-95.3698028
NUE,Nucor Corp.,Materials,Steel,"Charlotte, North Carolina",35.2270869,-80.8431267
NVDA,Nvidia Corporation,Information Technology,Semiconductors,"Santa Clara, California",37.3541079,-121.9552356
NVR,"NVR, Inc.",Consumer Discretionary,Homebuilding,"Reston, Virginia",38.9586307,-77.3570028
NXPI,NXP Semiconductors,Information Technology,Semiconductors,"Eindhoven, Netherlands",51.441642,5.4697225
ORLY,O'Reilly Automotive,Consumer Discretionary,Specialty Stores,"Springfield, Missouri",37.2089572,-93.2922989
OXY,Occidental Petroleum,Energy,Oil & Gas Exploration & Production,"Houston, Texas",29.7604267,-95.3698028
ODFL,Old Dominion Freight Line,Industrials,Trucking,"Thomasville, North Carolina",35.8826369,-80.0819879
OMC,Omnicom Group,Communication Services,Advertising,"New York, New York",40.7127753,-74.0059728
OKE,Oneok,Energy,Oil & Gas Storage & Transportation,"Tulsa, Oklahoma",36.1539816,-95.992775
ORCL,Oracle Corp.,Information Technology,Application Software,"Austin, Texas",30.267153,-97.7430608
OTIS,Otis Worldwide,Industrials,Industrial Machinery,"Farmington, Connecticut",41.7360305,-72.795027
PCAR,Paccar,Industrials,Construction Machinery & Heavy Trucks,"Bellevue, Washington",47.6101497,-122.2015159
PKG,Packaging Corporation of America,Materials,Paper Packaging,"Lake Forest, Illinois",42.2586342,-87.840625
PH,Parker-Hannifin,Industrials,Industrial Machinery,"Cleveland, Ohio",41.49932,-81.6943605
PAYX,Paychex Inc.,Information Technology,Data Processing & Outsourced Services,"Penfield, New York",43.1303407,-77.475551
PAYC,Paycom,Information Technology,Application Software,"Oklahoma City, Oklahoma",35.4675602,-97.5164276
PYPL,PayPal,Information Technology,Data Processing & Outsourced Services,"San Jose, California",37.3382082,-121.8863286
PENN,Penn National Gaming,Consumer Discretionary,Casinos & Gaming,"Wyomissing, Pennsylvania",40.329537,-75.9652117
PNR,Pentair plc,Industrials,Industrial Machinery,"Worsley, UK",53.50754,-2.391199
PBCT,People's United Financial,Financials,Thrifts & Mortgage Finance,"Bridgeport, Connecticut",41.1792258,-73.1894384
PEP,PepsiCo Inc.,Consumer Staples,Soft Drinks,"Purchase, New York",41.0400135,-73.7144477
PKI,PerkinElmer,Health Care,Health Care Equipment,"Waltham, Massachusetts",42.3764852,-71.2356113
PRGO,Perrigo,Health Care,Pharmaceuticals,"Dublin, Ireland",53.3498053,-6.2603097
PFE,Pfizer Inc.,Health Care,Pharmaceuticals,"New York, New York",40.7127753,-74.0059728
PM,Philip Morris International,Consumer Staples,Tobacco,"New York, New York",40.7127753,-74.0059728
PSX,Phillips 66,Energy,Oil & Gas Refining & Marketing,"Houston, Texas",29.7604267,-95.3698028
PNW,Pinnacle West Capital,Utilities,Multi-Utilities,"Phoenix, Arizona",33.4483771,-112.0740373
PXD,Pioneer Natural Resources,Energy,Oil & Gas Exploration & Production,"Irving, Texas",32.8140177,-96.9488945
PNC,PNC Financial Services,Financials,Regional Banks,"Pittsburgh, Pennsylvania",40.4406248,-79.9958864
POOL,Pool Corporation,Consumer Discretionary,Distributors,"Covington, Louisiana",30.4754702,-90.1009108
PPG,PPG Industries,Materials,Specialty Chemicals,"Pittsburgh, Pennsylvania",40.4406248,-79.9958864
PPL,PPL Corp.,Utilities,Electric Utilities,"Allentown, Pennsylvania",40.6022939,-75.4714098
PFG,Principal Financial Group,Financials,Life & Health Insurance,"Des Moines, Iowa",41.5868353,-93.6249593
PG,Procter & Gamble,Consumer Staples,Personal Products,"Cincinnati, Ohio",39.1031182,-84.5120196
PGR,Progressive Corp.,Financials,Property & Casualty Insurance,"Mayfield Village, Ohio",41.5519952,-81.4392828
PLD,Prologis,Real Estate,Industrial REITs,"San Francisco, California",37.7749295,-122.4194155
PRU,Prudential Financial,Financials,Life & Health Insurance,"Newark, New Jersey",40.735657,-74.1723667
PTC,PTC Inc.,Information Technology,Application Software,"Boston, Massachusetts",42.3600825,-71.0588801
PEG,Public Service Enterprise Group (PSEG),Utilities,Electric Utilities,"Newark, New Jersey",40.735657,-74.1723667
PSA,Public Storage,Real Estate,Specialized REITs,"Glendale, California",34.1425078,-118.255075
PHM,PulteGroup,Consumer Discretionary,Homebuilding,"Atlanta, Georgia",33.7489954,-84.3879824
PVH,PVH Corp.,Consumer Discretionary,"Apparel, Accessories & Luxury Goods","New York, New York",40.7127753,-74.0059728
QRVO,Qorvo,Information Technology,Semiconductors,"Greensboro, North Carolina",36.0726354,-79.7919754
PWR,Quanta Services Inc.,Industrials,Construction & Engineering,"Houston, Texas",29.7604267,-95.3698028
QCOM,Qualcomm,Information Technology,Semiconductors,"San Diego, California",32.715738,-117.1610838
DGX,Quest Diagnostics,Health Care,Health Care Services,"Secaucus, New Jersey",40.7895453,-74.0565298
RL,Ralph Lauren Corporation,Consumer Discretionary,"Apparel, Accessories & Luxury Goods","New York, New York",40.7127753,-74.0059728
RJF,Raymond James Financial,Financials,Investment Banking & Brokerage,"St. Petersburg, Florida",27.7676008,-82.6402915
RTX,Raytheon Technologies,Industrials,Aerospace & Defense,"Waltham, Massachusetts",42.3764852,-71.2356113
O,Realty Income Corporation,Real Estate,Retail REITs,"San Diego, California",32.715738,-117.1610838
REG,Regency Centers Corporation,Real Estate,Retail REITs,"Jacksonville, Florida",30.3321838,-81.655651
REGN,Regeneron Pharmaceuticals,Health Care,Biotechnology,"Tarrytown, New York",41.0762077,-73.8587461
RF,Regions Financial Corp.,Financials,Regional Banks,"Birmingham, Alabama",33.5185892,-86.8103567
RSG,Republic Services Inc,Industrials,Environmental & Facilities Services,"Phoenix, Arizona",33.4483771,-112.0740373
RMD,ResMed,Health Care,Health Care Equipment,"San Diego, California",32.715738,-117.1610838
RHI,Robert Half International,Industrials,Human Resource & Employment Services,"Menlo Park, California",37.4529598,-122.1817252
ROK,Rockwell Automation Inc.,Industrials,Electrical Components & Equipment,"Milwaukee, Wisconsin",43.0389025,-87.9064736
ROL,"Rollins, Inc.",Industrials,Environmental & Facilities Services,"Atlanta, Georgia",33.7489954,-84.3879824
ROP,Roper Technologies,Industrials,Industrial Conglomerates,"Sarasota, Florida",27.3364347,-82.5306527
ROST,Ross Stores,Consumer Discretionary,Apparel Retail,"Dublin, California",37.7159396,-121.9101221
RCL,Royal Caribbean Group,Consumer Discretionary,"Hotels, Resorts & Cruise Lines","Miami, Florida",25.7616798,-80.1917902
SPGI,S&P Global Inc.,Financials,Financial Exchanges & Data,"New York, New York",40.7127753,-74.0059728
CRM,Salesforce.com,Information Technology,Application Software,"San Francisco, California",37.7749295,-122.4194155
SBAC,SBA Communications,Real Estate,Specialized REITs,"Boca Raton, Florida",26.3683064,-80.1289321
SLB,Schlumberger Ltd.,Energy,Oil & Gas Equipment & Services,"Cura챌ao,혻Kingdom of the Netherlands",12.16957,-68.99002
STX,Seagate Technology,Information Technology,"Technology Hardware, Storage & Peripherals","Dublin, Ireland",53.3498053,-6.2603097
SEE,Sealed Air,Materials,Paper Packaging,"Charlotte, North Carolina",35.2270869,-80.8431267
SRE,Sempra Energy,Utilities,Multi-Utilities,"San Diego, California",32.715738,-117.1610838
NOW,ServiceNow,Information Technology,Systems Software,"Santa Clara, California",37.3541079,-121.9552356
SHW,Sherwin-Williams,Materials,Specialty Chemicals,"Cleveland, Ohio",41.49932,-81.6943605
SPG,Simon Property Group Inc,Real Estate,Retail REITs,"Indianapolis, Indiana",39.768403,-86.158068
SWKS,Skyworks Solutions,Information Technology,Semiconductors,"Woburn, Massachusetts",42.4792618,-71.1522765
SNA,Snap-on,Industrials,Industrial Machinery,"Kenosha, Wisconsin",42.5847425,-87.8211854
SO,Southern Company,Utilities,Electric Utilities,"Atlanta, Georgia",33.7489954,-84.3879824
LUV,Southwest Airlines,Industrials,Airlines,"Dallas, Texas",32.7766642,-96.7969879
SWK,Stanley Black & Decker,Industrials,Industrial Machinery,"New Britain, Connecticut",41.6612104,-72.7795419
SBUX,Starbucks Corp.,Consumer Discretionary,Restaurants,"Seattle, Washington",47.6062095,-122.3320708
STT,State Street Corp.,Financials,Asset Management & Custody Banks,"Boston, Massachusetts",42.3600825,-71.0588801
STE,Steris,Health Care,Health Care Equipment,"Dublin, Ireland",53.3498053,-6.2603097
SYK,Stryker Corp.,Health Care,Health Care Equipment,"Kalamazoo, Michigan",42.2917069,-85.5872286
SIVB,SVB Financial,Financials,Regional Banks,"Santa Clara, California",37.3541079,-121.9552356
SYF,Synchrony Financial,Financials,Consumer Finance,"Stamford, Connecticut",41.0534302,-73.5387341
SNPS,Synopsys Inc.,Information Technology,Application Software,"Mountain View, California",37.3860517,-122.0838511
SYY,Sysco Corp.,Consumer Staples,Food Distributors,"Houston, Texas",29.7604267,-95.3698028
TMUS,T-Mobile US,Communication Services,Wireless Telecommunication Services,"Bellevue, Washington",47.6101497,-122.2015159
TROW,T. Rowe Price Group,Financials,Asset Management & Custody Banks,"Baltimore, Maryland",39.2903848,-76.6121893
TTWO,Take-Two Interactive,Communication Services,Interactive Home Entertainment,"New York, New York",40.7127753,-74.0059728
TPR,"Tapestry, Inc.",Consumer Discretionary,"Apparel, accessories & Luxury Goods","New York, New York",40.7127753,-74.0059728
TGT,Target Corp.,Consumer Discretionary,General Merchandise Stores,"Minneapolis, Minnesota",44.977753,-93.2650108
TEL,TE Connectivity Ltd.,Information Technology,Electronic Manufacturing Services,"Schaffhausen, Switzerland",47.6958897,8.6380489
TDY,Teledyne Technologies,Industrials,Aerospace & Defense,"Thousand Oaks, California",34.1705609,-118.8375937
TFX,Teleflex,Health Care,Health Care Equipment,"Wayne, Pennsylvania",40.0415996,-75.3698895
TER,Teradyne,Information Technology,Semiconductor Equipment,"North Reading, Massachusetts",42.5750939,-71.0786653
TSLA,"Tesla, Inc.",Consumer Discretionary,Automobile Manufacturers,"Palo Alto, California",37.4418834,-122.1430195
TXN,Texas Instruments,Information Technology,Semiconductors,"Dallas, Texas",32.7766642,-96.7969879
TXT,Textron Inc.,Industrials,Aerospace & Defense,"Providence, Rhode Island",41.8239891,-71.4128343
TMO,Thermo Fisher Scientific,Health Care,Life Sciences Tools & Services,"Waltham, Massachusetts",42.3764852,-71.2356113
TJX,TJX Companies Inc.,Consumer Discretionary,Apparel Retail,"Framingham, Massachusetts",42.279286,-71.4161565
TSCO,Tractor Supply Company,Consumer Discretionary,Specialty Stores,"Brentwood, Tennessee",36.0331164,-86.7827772
TT,Trane Technologies plc,Industrials,Building Products,"Dublin, Ireland",53.3498053,-6.2603097
TDG,TransDigm Group,Industrials,Aerospace & Defense,"Cleveland, Ohio",41.49932,-81.6943605
TRV,The Travelers Companies,Financials,Property & Casualty Insurance,"New York, New York",40.7127753,-74.0059728
TRMB,Trimble Inc.,Information Technology,Electronic Equipment & Instruments,"Sunnyvale, California",37.36883,-122.0363496
TFC,Truist Financial,Financials,Regional Banks,"Charlotte, North Carolina",35.2270869,-80.8431267
TWTR,"Twitter, Inc.",Communication Services,Interactive Media & Services,"San Francisco, California",37.7749295,-122.4194155
TYL,Tyler Technologies,Information Technology,Application Software,"Plano, Texas",33.0198431,-96.6988856
TSN,Tyson Foods,Consumer Staples,Packaged Foods & Meats,"Springdale, Arkansas",36.1867442,-94.1288141
UDR,"UDR, Inc.",Real Estate,Residential REITs,"Highlands Ranch, Colorado",39.5480789,-104.9739333
ULTA,Ulta Beauty,Consumer Discretionary,Specialty Stores,"Bolingbrook, Illinois",41.6986416,-88.0683955
USB,U.S. Bancorp,Financials,Diversified Banks,"Minneapolis, Minnesota",44.977753,-93.2650108
UAA,Under Armour (Class A),Consumer Discretionary,"Apparel, Accessories & Luxury Goods","Baltimore, Maryland",39.2903848,-76.6121893
UA,Under Armour (Class C),Consumer Discretionary,"Apparel, Accessories & Luxury Goods","Baltimore, Maryland",39.2903848,-76.6121893
UNP,Union Pacific Corp,Industrials,Railroads,"Omaha, Nebraska",41.2565369,-95.9345034
UAL,United Airlines Holdings,Industrials,Airlines,"Chicago, Illinois",41.8781136,-87.6297982
UNH,UnitedHealth Group Inc.,Health Care,Managed Health Care,"Minnetonka, Minnesota",44.9211836,-93.4687489
UPS,United Parcel Service,Industrials,Air Freight & Logistics,"Atlanta, Georgia",33.7489954,-84.3879824
URI,"United Rentals, Inc.",Industrials,Trading Companies & Distributors,"Stamford, Connecticut",41.0534302,-73.5387341
UHS,Universal Health Services,Health Care,Health Care Facilities,"King of Prussia, Pennsylvania",40.1012856,-75.3835525
UNM,Unum Group,Financials,Life & Health Insurance,"Chattanooga, Tennessee",35.0456297,-85.3096801
VLO,Valero Energy,Energy,Oil & Gas Refining & Marketing,"San Antonio, Texas",29.4241219,-98.4936282
VTR,Ventas Inc,Real Estate,Health Care REITs,"Chicago, Illinois",41.8781136,-87.6297982
VRSN,Verisign Inc.,Information Technology,Internet Services & Infrastructure,"Dulles, Virginia",38.9624899,-77.4380485
VRSK,Verisk Analytics,Industrials,Research & Consulting Services,"Jersey City, New Jersey",40.7177545,-74.0431435
VZ,Verizon Communications,Communication Services,Integrated Telecommunication Services,"New York, New York",40.7127753,-74.0059728
VRTX,Vertex Pharmaceuticals Inc,Health Care,Biotechnology,"Cambridge, Massachusetts",42.3736158,-71.1097335
VFC,VF Corporation,Consumer Discretionary,"Apparel, Accessories & Luxury Goods","Denver, Colorado",39.7392358,-104.990251
VIAC,ViacomCBS,Communication Services,Movies & Entertainment,"New York, New York",40.7127753,-74.0059728
VTRS,Viatris,Health Care,Pharmaceuticals,"Pittsburgh,혻Pennsylvania",40.4406248,-79.9958864
V,Visa Inc.,Information Technology,Data Processing & Outsourced Services,"San Francisco, California",37.7749295,-122.4194155
VNO,Vornado Realty Trust,Real Estate,Office REITs,"New York, New York",40.7127753,-74.0059728
VMC,Vulcan Materials,Materials,Construction Materials,"Birmingham, Alabama",33.5185892,-86.8103567
WRB,W. R. Berkley Corporation,Financials,Property & Casualty Insurance,"Greenwich, Connecticut",41.0262417,-73.6281964
WAB,Westinghouse Air Brake Technologies Corp,Industrials,Construction Machinery & Heavy Trucks,"Pittsburgh, Pennsylvania",40.4406248,-79.9958864
WMT,Walmart,Consumer Staples,Hypermarkets & Super Centers,"Bentonville, Arkansas",36.3728538,-94.2088172
WBA,Walgreens Boots Alliance,Consumer Staples,Drug Retail,"Deerfield, Illinois",42.1711365,-87.8445119
DIS,The Walt Disney Company,Communication Services,Movies & Entertainment,"Burbank, California",34.1808392,-118.3089661
WM,Waste Management Inc.,Industrials,Environmental & Facilities Services,"Houston, Texas",29.7604267,-95.3698028
WAT,Waters Corporation,Health Care,Health Care Distributors,"Milford, Massachusetts",42.1398577,-71.5163049
WEC,WEC Energy Group,Utilities,Electric Utilities,"Milwaukee, Wisconsin",43.0389025,-87.9064736
WFC,Wells Fargo,Financials,Diversified Banks,"San Francisco, California",37.7749295,-122.4194155
WELL,Welltower Inc.,Real Estate,Health Care REITs,"Toledo, Ohio",41.6528052,-83.5378674
WST,West Pharmaceutical Services,Health Care,Health Care Supplies,"Exton, Pennsylvania",40.0325817,-75.6274583
WDC,Western Digital,Information Technology,"Technology Hardware, Storage & Peripherals","San Jose, California",37.3382082,-121.8863286
WU,Western Union Co,Information Technology,Data Processing & Outsourced Services,"Englewood, Colorado",39.6477653,-104.9877597
WRK,WestRock,Materials,Paper Packaging,"Atlanta, Georgia",33.7489954,-84.3879824
WY,Weyerhaeuser,Real Estate,Specialized REITs,"Federal Way, Washington",47.3223221,-122.3126222
WHR,Whirlpool Corp.,Consumer Discretionary,Household Appliances,"Benton Harbor, Michigan",42.1167065,-86.4541894
WMB,Williams Companies,Energy,Oil & Gas Storage & Transportation,"Tulsa, Oklahoma",36.1539816,-95.992775
WLTW,Willis Towers Watson,Financials,Insurance Brokers,"London, United Kingdom",51.5073509,-0.1277583
WYNN,Wynn Resorts Ltd,Consumer Discretionary,Casinos & Gaming,"Paradise, Nevada",36.0971945,-115.1466648
XEL,Xcel Energy Inc,Utilities,Multi-Utilities,"Minneapolis, Minnesota",44.977753,-93.2650108
XLNX,Xilinx,Information Technology,Semiconductors,"San Jose, California",37.3382082,-121.8863286
XYL,Xylem Inc.,Industrials,Industrial Machinery,"White Plains, New York",41.0339862,-73.7629097
YUM,Yum! Brands Inc,Consumer Discretionary,Restaurants,"Louisville, Kentucky",38.2526647,-85.7584557
ZBRA,Zebra Technologies,Information Technology,Electronic Equipment & Instruments,"Lincolnshire, Illinois",42.1900249,-87.9084039
ZBH,Zimmer Biomet,Health Care,Health Care Equipment,"Warsaw, Indiana",41.2381,-85.8530469
ZION,Zions Bancorp,Financials,Regional Banks,"Salt Lake City, Utah",40.7607793,-111.8910474
ZTS,Zoetis,Health Care,Pharmaceuticals,"Parsippany, New Jersey",40.8652865,-74.4173877